City_ID,City,Lat,Lng,Max Temp,Humidity,Cloudiness,Wind Speed,Country,Date
0,Avarua,-21.2078,-159.775,25.03,69,75,6.17,CK,1698870761
1,Richards Bay,-28.783,32.0377,16.2,78,76,1.02,ZA,1698870565
2,Albany,42.6001,-73.9662,7.23,57,50,0.89,US,1698870575
3,Edinburgh Of The Seven Seas,-37.0676,-12.3116,14.67,91,51,4.05,SH,1698870761
4,Oranjemund,-28.55,16.4333,19.4,69,50,3.9,NA,1698870761
5,Grytviken,-54.2811,-36.5092,0.57,72,13,5.46,GS,1698870762
6,West Island,-12.1568,96.8225,25.99,83,100,6.69,CC,1698870762
7,Tiksi,71.6872,128.8694,-8.94,95,100,7.05,RU,1698870762
8,La Mira,18.035,-102.3266,29.22,73,88,2.78,MX,1698870762
9,Ha'Il,27.5219,41.6907,18.01,94,0,1.03,SA,1698870762
10,Yuzhno-Kurilsk,44.0306,145.8556,14.1,75,100,4.8,RU,1698870763
11,Sao Jose Da Coroa Grande,-8.8978,-35.1478,26.19,80,5,5.76,BR,1698870681
12,Gilleleje,56.122,12.3106,8.95,89,100,4.02,DK,1698870763
13,Ribeira Grande,38.5167,-28.7,21.22,94,75,6.69,PT,1698870763
14,Margate,51.3813,1.3862,13.83,88,71,2.68,GB,1698870711
15,Puerto Natales,-51.7236,-72.4875,13.25,47,0,9.77,CL,1698870739
16,Anadyr,64.75,177.4833,-4.72,100,75,3.0,RU,1698870763
17,Thompson,55.7435,-97.8558,-5.91,68,100,4.12,CA,1698870764
18,Blackmans Bay,-43.0167,147.3167,8.18,80,87,0.45,AU,1698870764
19,Woolgoolga,-30.1106,153.2007,16.69,72,71,2.07,AU,1698870764
20,Port Mathurin,-19.6833,63.4167,24.82,77,11,8.03,MU,1698870765
21,Utrik,11.2278,169.8474,27.48,80,39,7.4,MH,1698870765
22,Dongsheng,39.8161,109.9776,10.21,43,38,10.51,CN,1698870765
23,Wailua Homesteads,22.0669,-159.378,27.24,73,0,2.57,US,1698870765
24,Castillos,-34.1667,-53.8333,14.11,68,100,6.16,UY,1698870598
25,Turinsk,58.0458,63.696,-3.7,97,100,1.57,RU,1698870766
26,Bethel,41.3712,-73.414,8.69,72,75,4.12,US,1698870758
27,Valparaiso,-33.0393,-71.6273,17.22,66,0,4.12,CL,1698870678
28,Lebu,-37.6167,-73.65,11.62,73,30,4.65,CL,1698870766
29,Keflavik,64.0049,-22.5624,2.24,64,0,3.09,IS,1698870766
30,Hawaiian Paradise Park,19.5933,-154.9731,27.73,79,40,3.6,US,1698870766
31,Lihue,21.9789,-159.3672,27.58,72,0,2.57,US,1698870766
32,Stanley,54.868,-1.6985,7.25,87,0,2.57,GB,1698870767
33,Alofi,-19.0595,-169.9187,25.94,78,75,9.77,NU,1698870767
34,Colonia,50.9333,6.95,12.2,79,0,5.66,DE,1698870767
35,Palikir - National Government Center,6.9248,158.1611,27.41,76,98,4.24,FM,1698870553
36,Edd,13.9297,41.6925,30.11,55,58,8.36,ER,1698870767
37,Sainte-Rose,16.3324,-61.6979,30.1,70,20,5.14,GP,1698870767
38,San Patricio,28.017,-97.5169,19.53,29,0,3.05,US,1698870768
39,Kailua-Kona,19.6406,-155.9956,29.22,74,40,3.09,US,1698870768
40,Atafu Village,-8.5421,-172.5159,28.77,71,99,4.03,TK,1698870768
41,Port-Aux-Francais,-49.35,70.2167,3.7,78,10,11.84,TF,1698870768
42,Kerikeri,-35.2268,173.9474,16.06,91,77,2.9,NZ,1698870768
43,Invercargill,-46.4,168.35,11.68,91,99,0.89,NZ,1698870768
44,Papatowai,-46.5619,169.4708,11.25,87,100,1.84,NZ,1698870769
45,Longyearbyen,78.2186,15.6401,-16.26,82,0,1.27,SJ,1698870737
46,Nuuk,64.1835,-51.7216,2.71,87,100,8.49,GL,1698870769
47,Kaa-Khem,51.6833,94.7333,1.34,68,100,2.42,RU,1698870769
48,Oum Hadjer,13.2954,19.6966,32.6,36,100,0.93,TD,1698870769
49,Adamstown,-25.066,-130.1015,22.82,76,1,6.84,PN,1698870769
50,Yellowknife,62.456,-114.3525,-5.88,91,100,5.14,CA,1698870617
51,Vernon,50.2581,-119.2691,7.56,60,100,0.51,CA,1698870770
52,Iqaluit,63.7506,-68.5145,-4.15,92,100,6.71,CA,1698870770
53,Bilibino,68.0546,166.4372,-18.93,99,89,1.87,RU,1698870744
54,Udachny,66.4167,112.4,-24.2,75,81,2.55,RU,1698870770
55,Puerto Ayora,-0.7393,-90.3518,26.98,89,70,3.58,EC,1698870770
56,Khovd,48.0056,91.6419,0.12,45,87,3.4,MN,1698870770
57,Shimoda,34.6667,138.95,14.5,59,0,2.93,JP,1698870770
58,Kidal,18.4411,1.4078,28.57,13,91,4.5,ML,1698870771
59,Howrah,22.5892,88.3103,26.0,78,20,0.0,IN,1698870771
60,Ketchikan,55.3422,-131.6461,8.99,87,100,2.57,US,1698870771
61,Opuwo,-18.0607,13.84,21.45,23,26,2.97,NA,1698870771
62,Susuman,62.7833,148.1667,-17.23,98,100,0.89,RU,1698870771
63,Uturoa,-16.7333,-151.4333,25.61,81,48,10.78,PF,1698870771
64,Holualoa,19.6228,-155.9522,27.15,74,40,3.09,US,1698870772
65,Fale Old Settlement,-9.3852,-171.2468,28.53,71,99,3.63,TK,1698870772
66,Happy Valley-Goose Bay,53.3168,-60.3315,1.17,37,20,9.26,CA,1698870772
67,Gadzhiyevo,69.2551,33.3362,-5.02,96,98,1.34,RU,1698870772
68,Nanping,26.645,118.1736,15.58,94,0,0.82,CN,1698870773
69,Ballina,-28.8667,153.5667,17.1,65,99,2.74,AU,1698870773
70,Khandyga,62.6667,135.6,-15.69,97,100,1.58,RU,1698870631
71,Tazacorte,28.629,-17.9293,23.54,94,40,6.69,ES,1698870773
72,Waitangi,-43.9535,-176.5597,14.34,97,100,4.47,NZ,1698870774
73,Khorixas,-20.3667,14.9667,18.29,35,2,2.46,NA,1698870774
74,Bredasdorp,-34.5322,20.0403,16.04,87,100,6.19,ZA,1698870774
75,Margaret River,-33.95,115.0667,11.54,94,60,4.79,AU,1698870774
76,Hasaki,35.7333,140.8333,10.22,62,0,2.63,JP,1698870775
77,Luderitz,-26.6481,15.1594,17.59,75,72,1.92,NA,1698870775
78,Knyaze-Volkonskoye,48.4642,135.4567,-2.22,46,15,3.58,RU,1698870775
79,North Platte,41.1239,-100.7654,15.6,28,0,1.54,US,1698870775
80,Whitehorse,60.7161,-135.0538,0.45,93,100,3.09,CA,1698870773
81,Nadym,65.5333,72.5167,-9.28,95,100,3.06,RU,1698870776
82,Sankt Johann,48.454,9.344,9.81,65,98,2.68,DE,1698870776
83,Rio De Janeiro,-22.9028,-43.2075,24.0,83,75,7.2,BR,1698870525
84,Port Alfred,-33.5906,26.891,17.32,86,100,1.79,ZA,1698870776
85,Severo-Yeniseyskiy,60.3725,93.0408,-19.28,95,29,1.57,RU,1698870776
86,Searcy,35.2506,-91.7363,11.87,31,0,2.06,US,1698870777
87,Enewetak,11.3474,162.3373,28.34,74,100,6.11,MH,1698870777
88,Riviere-Du-Loup,47.8304,-69.5342,1.49,51,84,3.09,CA,1698870777
89,Richmond,37.5538,-77.4603,11.15,39,20,7.2,US,1698870601
90,Ushuaia,-54.8,-68.3,8.81,46,0,10.8,AR,1698870563
91,Coahuayana De Hidalgo,18.7,-103.6583,30.42,68,74,2.35,MX,1698870777
92,Klyuchi,52.2667,79.1667,1.16,95,100,7.54,RU,1698870778
93,Kalmunai,7.4167,81.8167,25.98,85,84,2.47,LK,1698870778
94,Nagqu,31.5,92.0,-3.41,91,100,3.7,CN,1698870778
95,Vallenar,-28.5708,-70.7581,18.66,29,46,4.89,CL,1698870778
96,Kavaratti,10.5669,72.642,28.03,74,49,2.83,IN,1698870778
97,Grand Falls-Windsor,48.9332,-55.6649,3.61,74,100,1.41,CA,1698870516
98,Petropavlovsk-Kamchatsky,53.0452,158.6483,1.36,63,100,4.0,RU,1698870694
99,Chonchi,-42.6128,-73.8092,17.56,44,6,1.94,CL,1698870762
100,Korla,41.7597,86.1469,9.34,58,6,0.96,CN,1698870779
101,Adam,22.3756,57.5233,22.64,55,4,0.8,OM,1698870779
102,Cockburn Town,21.4612,-71.1419,28.71,77,97,6.13,TC,1698870779
103,Yeppoon,-23.1333,150.7333,21.88,68,18,5.66,AU,1698870779
104,Brookings,44.3114,-96.7984,7.0,52,0,6.69,US,1698870779
105,Ust-Nera,64.5667,143.2,-17.05,99,100,2.22,RU,1698870742
106,Smithers,54.7804,-127.1743,1.18,75,75,1.54,CA,1698870780
107,Punta Arenas,-53.15,-70.9167,9.06,43,0,11.32,CL,1698870780
108,Kapuskasing,49.4169,-82.4331,1.05,51,75,6.69,CA,1698870780
109,St. John'S,47.5649,-52.7093,7.1,84,100,5.66,CA,1698870622
110,La Passe,45.5549,-0.8967,14.13,86,99,13.14,FR,1698870780
111,Isafjordur,66.0755,-23.124,1.84,77,88,4.52,IS,1698870781
112,College,64.8569,-147.8028,2.11,84,40,1.54,US,1698870781
113,Talnakh,69.4865,88.3972,-14.33,92,100,3.19,RU,1698870781
114,Aasiaat,68.7098,-52.8699,-0.94,67,100,9.41,GL,1698870781
115,Bratsk,56.1325,101.6142,-16.73,79,18,2.22,RU,1698870689
116,Port Elizabeth,-33.918,25.5701,17.95,90,40,5.14,ZA,1698870190
117,Ilulissat,69.2167,-51.1,5.01,33,99,16.98,GL,1698870781
118,Dingli,35.8614,14.3822,22.67,73,20,3.09,MT,1698870782
119,Egilsstadir,65.2653,-14.3948,0.95,93,40,3.6,IS,1698870782
120,Tommot,58.9564,126.2925,-19.31,95,99,2.98,RU,1698870782
121,Novyy Oskol,50.7631,37.8691,12.57,76,100,2.19,RU,1698870783
122,Tirumullaivasal,11.2333,79.8333,26.87,82,100,3.87,IN,1698870783
123,Rawlins,41.7911,-107.2387,10.94,19,0,10.8,US,1698870783
124,Weno,7.4515,151.8468,25.97,100,75,0.0,FM,1698870783
125,Sabha,27.0377,14.4283,23.66,23,0,2.82,LY,1698870784
126,Port Lincoln,-34.7333,135.8667,13.7,82,91,4.95,AU,1698870784
127,Vazante,-17.9869,-46.9078,28.77,51,85,2.36,BR,1698870784
128,Bamboo Flat,11.7,92.7167,27.05,83,75,1.03,IN,1698870559
129,Hermanus,-34.4187,19.2345,16.54,85,100,6.85,ZA,1698870785
130,Belyy Yar,53.6039,91.3903,-3.06,100,100,0.0,RU,1698870785
131,Shingu,33.7333,135.9833,14.29,65,0,2.53,JP,1698870785
132,Telimele,10.9167,-13.3333,22.37,92,81,1.0,GN,1698870785
133,Malanje,-9.5402,16.341,17.62,98,100,1.08,AO,1698870786
134,Xiongzhou,25.1167,114.3,17.71,84,5,0.64,CN,1698870786
135,Portoferraio,42.8115,10.3146,19.21,88,70,5.14,IT,1698870786
136,Carutapera,-1.195,-46.02,27.26,78,1,4.44,BR,1698870787
137,Saipan,15.1355,145.701,27.39,83,20,4.63,MP,1698870787
138,Hamilton,39.1834,-84.5333,9.4,47,40,2.57,US,1698870538
139,Fisterra,42.9049,-9.2629,18.34,88,100,18.46,ES,1698870787
140,Minas De Marcona,-15.2119,-75.1103,19.4,56,13,6.95,PE,1698870788
141,Namtsy,62.7161,129.6658,-15.83,91,100,3.01,RU,1698870788
142,Yankton,42.8711,-97.3973,12.29,37,0,4.63,US,1698870788
143,Aykhal,66.0,111.5,-24.37,100,97,3.15,RU,1698870788
144,Miri,4.4148,114.0089,26.08,94,40,2.57,MY,1698870789
145,Manfalut,27.3104,30.97,23.14,46,0,3.79,EG,1698870789
146,Lubuklinggau,-3.3,102.8667,23.45,94,94,0.51,ID,1698870790
147,Bushehr,28.9684,50.8385,25.05,73,65,0.0,IR,1698870790
148,Toktogul,41.8708,72.9402,9.39,52,10,2.1,KG,1698870790
149,Dryden,49.7833,-92.7503,-2.84,86,100,3.6,CA,1698870790
150,Pierre,44.3683,-100.351,10.48,47,0,6.69,US,1698870791
151,Nalhati,24.3,87.8167,22.97,67,52,1.57,IN,1698870791
152,Pisco,-13.7,-76.2167,21.03,78,40,4.12,PE,1698870791
153,Timimoun,29.2639,0.231,30.21,14,0,4.12,DZ,1698870791
154,Kegen,43.0197,79.2203,1.28,82,100,0.48,KZ,1698870792
155,Sao Vicente,-23.9631,-46.3919,23.1,59,100,0.89,BR,1698870532
156,Mount Gambier,-37.8333,140.7667,9.66,87,19,1.33,AU,1698870792
157,Grande Prairie,55.1667,-118.8027,5.1,60,75,1.54,CA,1698870664
158,Dudinka,69.4058,86.1778,-14.1,97,100,0.89,RU,1698870793
159,Champerico,14.3,-91.9167,28.3,87,100,4.82,GT,1698870793
160,Malacacheta,-17.8422,-42.0767,23.38,74,96,1.28,BR,1698870793
161,Georgetown,5.4112,100.3354,25.01,97,20,1.54,MY,1698870794
162,La Ronge,55.1001,-105.2842,-1.86,80,100,4.63,CA,1698870794
163,Nam Som,17.7704,102.1895,24.68,91,98,0.98,TH,1698870794
164,Antalaha,-14.9003,50.2788,22.11,82,5,1.92,MG,1698870794
165,Saint-Philippe,-21.3585,55.7679,21.73,83,100,4.54,RE,1698870795
166,Iskateley,67.6803,53.1512,-10.55,97,24,2.68,RU,1698870795
167,Afaahiti,-17.75,-149.2833,27.93,83,95,10.53,PF,1698870795
168,Antsirabe,-19.85,47.0333,16.67,89,100,1.27,MG,1698870795
169,El Calafate,-50.3408,-72.2768,11.88,42,4,4.02,AR,1698870796
170,Basco,20.4487,121.9702,27.15,76,100,10.6,PH,1698870796
171,Gaigeturi,33.4644,126.3183,14.03,54,0,1.54,KR,1698870796
172,Howard Springs,-12.497,131.047,27.95,87,42,1.24,AU,1698870796
173,Harstad,68.799,16.5293,-1.03,94,6,2.68,NO,1698870797
174,Hithadhoo,-0.6,73.0833,27.18,81,98,6.47,MV,1698870797
175,Tinambac,13.8164,123.3261,25.43,92,100,1.5,PH,1698870797
176,Walvis Bay,-22.9575,14.5053,16.72,77,33,1.54,NA,1698870797
177,Cheongsong Gun,36.4335,129.057,13.02,90,0,1.97,KR,1698870798
178,Guixi,28.2886,117.2133,16.39,72,0,1.89,CN,1698870798
179,Fortuna,40.5982,-124.1573,21.63,49,40,1.54,US,1698870608
180,North Bend,43.4065,-124.2243,16.15,82,100,3.09,US,1698870799
181,Kruisfontein,-34.0033,24.7314,15.81,81,100,4.36,ZA,1698870799
182,Nova Sintra,14.8667,-24.7167,24.22,79,75,5.83,CV,1698870800
183,Constantia,44.1833,28.65,13.38,64,5,4.66,RO,1698870801
184,Buka,40.8108,69.1986,9.8,59,0,1.51,UZ,1698870801
185,Keetmanshoop,-26.5833,18.1333,25.51,19,24,3.09,NA,1698870801
186,Dravograd,46.5881,15.0192,13.03,97,100,1.48,SI,1698870801
187,Weihai,37.5017,122.1136,18.28,75,1,4.65,CN,1698870645
188,Tura,25.5198,90.2201,19.73,85,24,1.28,IN,1698870802
189,Alice Springs,-23.7,133.8833,20.75,60,100,4.63,AU,1698870592
190,Lerwick,60.1545,-1.1494,8.0,96,100,17.85,GB,1698870803
191,Mahina,-17.5065,-149.489,28.87,70,75,3.6,PF,1698870803
192,Tarawa,1.419,172.984,26.05,94,100,1.54,KI,1698870803
193,Traralgon,-38.1833,146.5333,10.9,78,25,1.78,AU,1698870803
194,Ojinaga,29.5667,-104.4167,19.12,26,2,1.43,MX,1698870804
195,Norfolk,42.1668,-71.2495,7.51,75,100,0.89,US,1698870797
196,Zhanaozen,43.3,52.8,11.87,32,35,8.39,KZ,1698870804
197,Lorengau,-2.0226,147.2712,26.79,80,73,3.05,PG,1698870578
198,Manati,18.4275,-66.4921,31.72,81,37,4.06,PR,1698870805
199,Filadelfia,39.9523,-75.1638,10.34,43,75,6.69,US,1698870759
200,Illizi,26.4833,8.4667,23.89,20,0,4.78,DZ,1698870805
201,Tintafor,8.6267,-13.215,28.09,74,40,3.09,SL,1698870805
202,Calibutbut,15.1114,120.6053,25.43,83,40,2.06,PH,1698870806
203,Kupiskis,55.8333,24.9667,5.07,76,82,3.34,LT,1698870806
204,Vilyuchinsk,52.9306,158.4028,2.18,98,100,1.55,RU,1698870806
205,Ebaye,8.7748,167.7392,28.01,83,0,4.12,MH,1698870807
206,Shagonar,51.5333,92.8,1.83,74,100,1.18,RU,1698870807
207,Ancud,-41.8697,-73.8203,13.71,57,41,3.17,CL,1698870807
208,Toliara,-23.35,43.6667,24.07,80,54,7.39,MG,1698870807
209,Olonkinbyen,70.9221,-8.7187,0.75,80,100,2.0,SJ,1698870807
210,Tsaratanana,-16.7833,47.65,25.67,70,47,2.2,MG,1698870883
211,Sebeta,8.9167,38.6167,13.02,65,97,0.63,ET,1698870883
212,Tlahualilo De Zaragoza,26.1167,-103.45,15.81,37,25,3.85,MX,1698870883
213,Xichang,27.8964,102.2634,12.35,89,9,0.32,CN,1698870883
214,Ekibastuz,51.6667,75.3667,0.73,78,100,7.27,KZ,1698870884
215,Qaryat Suluq,31.6682,20.2521,22.16,45,81,1.61,LY,1698870884
216,Hakkari,37.5833,44.1667,9.88,76,75,3.09,TR,1698870884
217,Maumere,-8.6199,122.2111,26.44,83,100,2.18,ID,1698870661
218,Farrukhnagar,17.0778,78.2011,20.84,76,84,3.03,IN,1698870884
219,Sainte-Agathe-Des-Monts,46.0501,-74.2825,1.12,58,100,1.96,CA,1698870666
220,Siverek,37.755,39.3167,18.72,38,61,1.69,TR,1698870885
221,Sujiatun,41.6592,123.3392,3.1,87,10,1.0,CN,1698870885
222,Betio Village,1.358,172.9211,26.02,75,60,3.07,KI,1698870885
223,San Antonio,29.4241,-98.4936,19.32,33,0,3.09,US,1698870810
224,Palapag,12.5458,125.1147,25.54,91,91,2.08,PH,1698870885
225,Kodiak,57.79,-152.4072,7.73,100,100,7.72,US,1698870886
226,Manggar,-2.8833,108.2667,26.84,85,100,2.23,ID,1698870886
227,Baardheere,2.3446,42.2764,26.11,82,100,4.06,SO,1698870886
228,Vorgashor,67.5833,63.95,-17.02,100,91,1.64,RU,1698870886
229,Sovetsk,55.0839,21.8785,4.87,78,71,2.85,RU,1698870886
230,Rio Grande,-32.035,-52.0986,20.06,84,100,9.17,BR,1698870887
231,Taoudenni,22.6783,-3.9836,32.23,11,50,4.81,ML,1698870887
232,Petite Riviere,-20.1894,57.4453,24.86,84,42,4.3,MU,1698870887
233,La'Ie,21.6477,-157.9253,30.03,79,3,2.24,US,1698870887
234,Remire-Montjoly,4.9167,-52.2667,30.02,74,0,5.14,GF,1698870887
235,Carbonear,47.7332,-53.2148,7.41,85,100,5.36,CA,1698870887
236,Cidreira,-30.1811,-50.2056,18.31,83,100,7.64,BR,1698870888
237,Sao Francisco De Assis,-29.5503,-55.1311,21.12,86,100,7.37,BR,1698870888
238,Cambria,35.5641,-121.0808,27.65,44,5,2.68,US,1698870888
239,Zaysan,47.4667,84.8667,4.58,80,100,3.93,KZ,1698870888
240,Arraial Do Cabo,-22.9661,-42.0278,24.92,88,75,6.69,BR,1698870888
241,Cox'S Bazar,21.4532,91.9798,24.18,89,94,2.51,BD,1698870888
242,Okhotsk,59.3833,143.3,-1.49,87,100,2.35,RU,1698870889
243,Cabedelo,-6.9811,-34.8339,28.37,81,83,6.78,BR,1698870714
244,Kone,-21.0595,164.8658,23.96,54,19,1.11,NC,1698870889
245,Mar Del Plata,-38.0023,-57.5575,11.08,58,40,7.2,AR,1698870757
246,Sona,45.4388,10.8255,11.99,93,40,1.54,IT,1698870889
247,Tolanaro,-25.0319,46.9987,24.04,88,40,10.8,MG,1698870890
248,Okha,53.5739,142.9478,-1.93,60,81,8.14,RU,1698870890
249,Luza,60.6308,47.2512,-1.89,93,100,4.62,RU,1698870890
250,Aydincik,36.1437,33.3202,23.35,60,100,1.18,TR,1698870890
251,Palmer,42.1584,-72.3287,5.71,81,75,3.6,US,1698870890
252,Katsuura,35.1333,140.3,17.89,68,0,2.24,JP,1698870890
253,Kani Keli,-12.9536,45.1033,26.59,76,1,2.35,YT,1698870891
254,Kasane,-17.8167,25.15,24.65,57,97,1.62,BW,1698870891
255,Kapa'A,22.0752,-159.319,27.99,72,0,2.57,US,1698870880
256,Hobyo,5.3505,48.5268,27.8,76,34,3.43,SO,1698870595
257,Tsiombe,-25.3,45.4833,22.58,81,48,3.98,MG,1698870891
258,Waiuku,-37.25,174.75,18.47,88,100,1.83,NZ,1698870892
259,Shitanjing,39.2342,106.3439,8.1,41,82,10.02,CN,1698870892
260,Pizhou,34.3114,117.9503,16.99,48,0,2.91,CN,1698870892
261,Den Burg,53.0542,4.7972,12.99,89,75,9.26,NL,1698870892
262,Banamba,13.55,-7.45,28.16,13,78,3.27,ML,1698870893
263,Leua,48.2156,18.6071,12.5,76,99,3.66,SK,1698870893
264,Sisimiut,66.9395,-53.6735,0.02,61,61,5.33,GL,1698870893
265,Morant Bay,17.8815,-76.4093,29.79,83,99,3.06,JM,1698870893
266,Connell,46.6635,-118.8611,7.78,68,100,0.88,US,1698870893
267,Pasuquin,18.3328,120.6177,25.97,94,75,1.03,PH,1698870894
268,Urangan,-25.3,152.9,20.75,73,100,6.81,AU,1698870894
269,Vodnyy,63.5046,53.4095,-10.88,99,75,1.07,RU,1698870894
270,La Tuque,47.4334,-72.7824,1.14,60,100,1.54,CA,1698870894
271,Nahiyat Ash Shinafiyah,31.5874,44.6602,27.16,34,92,2.95,IQ,1698870894
272,Lata,40.1629,-8.3327,18.78,92,95,5.36,PT,1698870894
273,Bima,-8.4667,118.7167,24.26,91,73,1.92,ID,1698870894
274,Sena Madureira,-9.0656,-68.6569,27.87,70,91,3.33,BR,1698870895
275,Porto Velho,-8.7619,-63.9039,31.03,62,75,2.06,BR,1698870895
276,Nueva Esperanza,15.2667,-87.6,26.79,91,100,1.19,HN,1698870895
277,Rome,34.257,-85.1647,12.17,27,0,4.63,US,1698870646
278,Badger,64.8,-147.5333,2.06,86,40,1.54,US,1698870895
279,Srivardhan,18.0333,73.0167,24.7,52,20,2.46,IN,1698870895
280,Hadibu,12.65,54.0333,26.12,74,100,4.28,YE,1698870895
281,Stephenville,32.2207,-98.2023,14.93,33,0,1.54,US,1698870896
282,Pacific Grove,36.6177,-121.9166,28.08,16,0,2.57,US,1698870896
283,Sinop,41.7711,34.8709,14.83,83,100,1.11,TR,1698870896
284,Am Timan,11.0297,20.2827,24.32,82,99,3.83,TD,1698870896
285,Phongsali,21.6833,102.1058,13.09,96,10,0.0,LA,1698870896
286,Jumla,29.2747,82.1838,6.71,68,0,2.43,NP,1698870896
287,Mana,5.6592,-53.7767,27.79,80,38,5.02,GF,1698870897
288,Arica,-18.475,-70.3042,24.75,64,0,4.63,CL,1698870897
289,Kingston,17.997,-76.7936,29.53,84,75,5.66,JM,1698870073
290,Taman',45.2117,36.7161,17.46,91,100,2.22,RU,1698870897
291,Sitka,57.0531,-135.33,6.94,81,40,0.0,US,1698870897
292,Zaozersk,69.4005,32.4476,-6.7,96,54,0.7,RU,1698870897
293,Laascaanood,8.4774,47.3597,23.79,76,99,7.26,SO,1698870897
294,Kapit,2.0167,112.9333,22.81,99,100,0.18,MY,1698870898
295,Codrington,-38.2667,141.9667,12.37,69,100,3.57,AU,1698870898
296,Burang,30.25,81.1667,-1.45,52,5,1.89,CN,1698870614
297,Buchanan,5.8808,-10.0467,26.1,84,37,2.39,LR,1698870898
298,Olyokminsk,60.3736,120.4264,-19.45,87,100,3.07,RU,1698870898
299,Chinde,26.8418,88.0763,13.83,71,14,2.27,NP,1698870898
300,Flying Fish Cove,-10.4217,105.6791,25.82,88,75,3.6,CX,1698870898
301,Toulepleu Guere,6.574,-8.4259,23.44,88,28,1.03,CI,1698870899
302,Port Arthur,38.8,121.2667,16.12,80,6,4.58,CN,1698870899
303,Newman,37.3138,-121.0208,23.49,12,24,2.01,US,1698870899
304,Suzun,53.7841,82.3116,0.39,99,100,2.82,RU,1698870740
305,Tambura,5.6,27.4667,21.77,95,100,0.73,SS,1698870899
306,Yuli,9.6989,10.2744,26.25,65,84,2.15,NG,1698870899
307,Muroto-Misakicho,33.2833,134.15,19.44,52,0,1.79,JP,1698870900
308,Mili,6.0815,171.735,28.18,74,93,2.78,MH,1698870900
309,Port Saint John'S,-31.6229,29.5448,16.93,83,100,5.17,ZA,1698870900
310,Sungho 1-Tong,38.9914,125.9778,14.67,92,0,2.43,KP,1698870900
311,Prince Rupert,54.3161,-130.3201,10.05,65,75,7.72,CA,1698870900
312,Osa,57.2829,55.4567,2.09,100,100,1.1,RU,1698870900
313,Ad Dawadimi,24.5077,44.3924,22.64,52,78,5.36,SA,1698870900
314,Ishigaki,24.3448,124.1572,25.07,83,20,5.14,JP,1698870901
315,Greenwood,34.1668,-82.1165,12.12,24,0,5.66,US,1698870610
316,Kralendijk,12.15,-68.2667,27.89,79,100,6.1,BQ,1698870889
317,Kourou,5.1552,-52.6478,30.03,79,44,4.05,GF,1698870901
318,Crane,31.3974,-102.3501,14.69,26,0,6.81,US,1698870901
319,Nemuro,43.3236,145.575,12.15,89,100,7.63,JP,1698870902
320,Bonthe,7.5264,-12.505,26.36,83,19,2.87,SL,1698870902
321,Talara,-4.5772,-81.2719,25.42,65,0,6.69,PE,1698870903
322,Lodja,-3.4833,23.4333,21.22,99,84,0.88,CD,1698870903
323,Lompoc,34.6391,-120.4579,30.99,12,0,3.09,US,1698870903
324,Santa Ana,33.7456,-117.8678,32.14,11,20,2.06,US,1698870689
325,Tagiura,32.8817,13.3506,27.01,45,50,4.09,LY,1698870904
326,Viedma,-40.8135,-62.9967,12.33,36,23,6.74,AR,1698870904
327,Selfoss,63.9331,-20.9971,1.14,56,0,6.6,IS,1698870905
328,Val-D'Or,48.1002,-77.7828,-1.95,64,75,4.63,CA,1698870906
329,Fujin,47.26,132.0322,-3.02,45,75,2.77,CN,1698870906
330,Magadan,59.5667,150.8,-1.02,92,100,3.91,RU,1698870906
331,Mengcheng Chengguanzhen,33.2661,116.566,17.77,51,0,0.85,CN,1698870907
332,Yasnyy,51.0333,59.8742,8.89,92,34,5.3,RU,1698870908
333,Tofol,5.3248,163.0078,27.49,77,86,3.86,FM,1698870908
334,Santa Cruz,-17.8,-63.1667,31.7,58,40,10.8,BO,1698870658
335,Vadso,70.0744,29.7487,-0.91,80,75,4.12,NO,1698870909
336,San Antonio De Pale,-1.4014,5.6325,26.43,84,34,3.84,GQ,1698870910
337,Gryazi,52.4966,39.9359,15.1,55,99,5.81,RU,1698870882
338,Wick,58.4333,-3.0833,9.03,93,100,8.23,GB,1698870910
339,Akureyri,65.6835,-18.0878,-0.04,69,75,2.57,IS,1698870910
340,Porto Novo,6.4965,2.6036,26.9,86,78,2.02,BJ,1698870911
341,Jamestown,42.097,-79.2353,4.77,64,100,4.12,US,1698870269
342,Siwa Oasis,29.2041,25.5195,23.5,46,0,2.14,EG,1698870912
343,Pucallpa,-8.3791,-74.5539,25.02,100,75,2.57,PE,1698870912
344,Zemio,5.0314,25.1361,21.31,98,100,1.09,CF,1698870912
345,Rwamagana,-1.9487,30.4347,20.69,81,100,1.18,RW,1698870913
346,Murghob,38.1702,73.9667,-1.99,58,19,1.72,TJ,1698870913
347,Zhezqazghan,47.7833,67.7667,6.59,78,100,3.64,KZ,1698870914
348,Pikalevo,59.5183,34.1664,6.83,95,100,4.04,RU,1698870915
349,Mushie,-3.0167,16.9,23.08,80,95,0.99,CD,1698870915
350,Kabansk,52.0486,106.6528,-7.58,64,46,2.5,RU,1698870916
351,Pazarcik,37.4869,37.2996,16.11,41,53,2.05,TR,1698870916
352,Praia,14.9215,-23.5087,27.3,74,75,5.66,CV,1698870917
353,Buhe,30.2876,112.2298,17.86,74,0,3.12,CN,1698870917
354,Baskil,38.5679,38.8238,13.91,44,24,1.82,TR,1698870917
355,Lycksele,64.5954,18.6735,-3.07,80,75,5.14,SE,1698870918
356,Sinabang,2.4803,96.3801,25.49,85,100,1.19,ID,1698870918
357,Fort Mcmurray,56.7268,-111.381,2.73,55,0,2.57,CA,1698870918
358,Muntok,-2.0667,105.1833,25.82,84,98,2.2,ID,1698870919
359,Bayevo,53.2833,80.7667,0.84,99,100,5.93,RU,1698870919
360,South Hedland,-20.4089,118.5983,20.96,94,0,2.57,AU,1698870919
361,Tralee,52.2704,-9.7026,7.56,84,100,2.09,IE,1698870920
362,Garhi Khairo,28.0606,67.9803,25.65,25,0,1.41,PK,1698870920
363,Westport,41.1415,-73.3579,9.39,68,40,6.17,US,1698870638
364,Brokopondo,4.75,-55.1667,31.57,56,57,3.53,SR,1698870921
365,Kayangel,8.0823,134.7173,28.4,76,84,3.41,PW,1698870921
366,Kongolo,-5.3833,27.0,22.22,95,75,1.22,CD,1698870922
367,Uetze,52.4651,10.2047,13.58,88,100,2.06,DE,1698870922
368,Paka,4.6374,103.4368,24.99,94,99,0.0,MY,1698870922
369,Qaqortoq,60.7167,-46.0333,0.44,100,100,0.94,GL,1698870922
370,Bykhaw,53.5193,30.2469,8.14,86,99,3.77,BY,1698870923
371,Awjilah,29.1081,21.2869,22.12,39,0,1.47,LY,1698870923
372,Calama,-22.4667,-68.9333,23.27,10,0,11.83,CL,1698870764
373,La Paz,-16.5,-68.15,19.99,46,40,5.66,BO,1698870924
374,Union City,37.5958,-122.0192,26.01,36,0,2.57,US,1698870924
375,Tarko-Sale,64.9225,77.785,-10.5,90,100,3.87,RU,1698870924
376,Mogok,22.9167,96.5,16.48,92,100,0.6,MM,1698870924
377,Sandefjord,59.1312,10.2167,0.15,82,75,4.63,NO,1698870925
378,Praia Da Vitoria,38.7333,-27.0667,22.14,78,20,7.49,PT,1698870926
379,Nadi,-17.8,177.4167,27.0,74,40,2.06,FJ,1698870926
380,Elko,41.0002,-115.5012,14.3,18,95,5.36,US,1698870926
381,Fort Bragg,35.139,-79.006,11.57,29,0,8.23,US,1698870926
382,Boyolangu,-8.1181,111.8935,24.08,92,36,0.51,ID,1698870927
383,Tazovsky,67.4667,78.7,-13.31,93,99,3.93,RU,1698870741
384,Saudarkrokur,65.7461,-19.6394,-0.95,68,1,2.36,IS,1698870927
385,Rawson,-43.3002,-65.1023,19.16,19,0,5.66,AR,1698870655
386,Santarem,-2.4431,-54.7083,34.07,59,20,5.14,BR,1698870705
387,Laguna,38.421,-121.4238,24.54,30,0,2.57,US,1698870928
388,Mount Isa,-20.7333,139.5,24.87,23,6,2.06,AU,1698870929
389,Hartsville,34.374,-80.0734,13.83,32,0,0.89,US,1698870877
390,Zouerate,22.7187,-12.4521,28.89,18,0,4.53,MR,1698870929
391,Pacasmayo,-7.4006,-79.5714,21.37,75,98,6.41,PE,1698870929
392,Oroqen Zizhiqi,50.5667,123.7167,-2.91,96,100,1.65,CN,1698870930
393,Caleta De Carquin,-11.0925,-77.6267,21.18,76,100,5.66,PE,1698870930
394,Pago Pago,-14.2781,-170.7025,26.27,82,97,12.52,AS,1698870930
395,Whitby,54.4877,-0.615,9.06,84,50,0.89,GB,1698870931
396,Berezniki,59.4152,56.8124,-6.66,96,95,1.72,RU,1698870931
397,Acapulco De Juarez,16.8634,-99.8901,29.51,71,67,2.94,MX,1698870931
398,Tahe,52.3333,124.7333,-6.89,92,100,1.31,CN,1698870932
399,East London,-33.0153,27.9116,17.64,79,100,5.19,ZA,1698870932
400,Cozumel,20.5083,-86.9458,24.41,100,100,3.58,MX,1698870932
401,Madagali,10.8902,13.6312,27.43,27,91,0.77,NG,1698870933
402,Polyarnyy,69.1989,33.4478,-4.68,96,97,1.37,RU,1698870803
403,Al Kharj,24.155,47.3346,26.32,52,11,5.15,SA,1698870933
404,Junqueiro,-9.9253,-36.4758,24.67,76,70,5.81,BR,1698870934
405,Guerrero Negro,27.9769,-114.0611,28.47,27,100,3.54,MX,1698870934
406,Novo Aripuana,-5.1206,-60.3797,36.2,32,70,1.03,BR,1698870934
407,Fort St. John,56.2499,-120.8529,0.94,80,75,2.06,CA,1698870935
408,Trincomalee,8.5711,81.2335,26.83,82,100,1.26,LK,1698870935
409,Pimentel,-6.8367,-79.9342,22.16,73,75,8.75,PE,1698870935
410,Keren,15.7778,38.4581,21.77,71,54,2.59,ER,1698870936
411,Geraldton,-28.7667,114.6,13.23,76,14,3.6,AU,1698870936
412,Plettenberg Bay,-34.0527,23.3716,15.79,93,100,3.45,ZA,1698870936
413,Yanchep,-31.55,115.6833,17.75,64,16,5.56,AU,1698870937
414,Bardai,11.65,7.2333,24.94,24,100,2.97,NG,1698870937
415,Suva,-18.1416,178.4415,26.71,89,75,7.2,FJ,1698870938
416,Lianjiang,21.6467,110.2817,20.79,89,45,1.96,CN,1698870938
417,Boca Do Acre,-8.7522,-67.3978,25.32,86,100,1.4,BR,1698870938
418,Rydeback,55.9667,12.7667,8.99,94,100,8.54,SE,1698870939
419,Bidart,43.4376,-1.5913,21.64,68,0,8.23,FR,1698870939
420,Keelung,25.1283,121.7419,25.05,89,8,3.97,TW,1698870939
421,Pyay,18.8167,95.2167,22.91,93,62,1.06,MM,1698870940
422,Summerside,46.3959,-63.7876,2.19,100,100,4.12,CA,1698870550
423,Camalu,30.85,-116.0667,24.73,22,61,4.22,MX,1698870940
424,Huarmey,-10.0681,-78.1522,22.22,72,6,5.28,PE,1698870941
425,Digri,25.1558,69.1113,27.74,32,4,2.56,PK,1698870941
426,Askoy,60.4092,5.226,4.16,93,75,3.6,NO,1698870941
427,Carqueiranne,43.0953,6.073,15.84,86,0,1.54,FR,1698870941
428,Corner Brook,48.9667,-57.9484,2.09,68,100,1.8,CA,1698870942
429,Colares,38.7992,-9.4469,19.94,93,84,10.28,PT,1698870942
430,Zilair,52.2332,57.4392,5.74,93,99,4.27,RU,1698870942
431,Ciudad Mante,22.7333,-98.9667,19.64,25,57,4.05,MX,1698870942
432,Thinadhoo,0.5333,72.9333,27.28,81,80,5.3,MV,1698870943
433,Dunedin,-45.8742,170.5036,12.11,98,100,2.68,NZ,1698870943
434,Isla Mujeres,21.2311,-86.731,28.03,67,100,8.54,MX,1698870943
435,Dongola,19.1667,30.4833,27.25,25,0,5.73,SD,1698870943
436,Bay City,43.5945,-83.8889,5.12,52,75,4.63,US,1698870838
437,Ak-Suu,42.4995,78.527,2.95,95,100,1.18,KG,1698870943
438,The Bottom,17.6259,-63.2492,28.31,75,13,7.06,BQ,1698870944
439,Sidi Akkacha,36.4647,1.3026,19.16,65,38,2.72,DZ,1698870944
440,Plastun,44.7561,136.2939,0.56,70,93,2.5,RU,1698870738
441,Cabo San Lucas,22.8909,-109.9124,32.56,58,20,3.6,MX,1698870944
442,Jiazi,22.8779,116.067,21.58,87,48,4.12,CN,1698870945
443,Puerto Aysen,-45.4,-72.7,16.2,55,4,0.59,CL,1698870740
444,Yaren,-0.5472,166.916,28.44,72,37,1.47,NR,1698870945
445,Madhupur,24.25,86.65,22.28,68,64,1.16,IN,1698870945
446,Sebastopol,44.6,33.5333,15.56,68,1,1.13,UA,1698870945
447,Tukrah,32.5341,20.5791,22.94,52,52,3.69,LY,1698870946
448,Namibe,-15.1961,12.1522,19.06,86,16,1.56,AO,1698870946
449,Bel Ombre,-4.6167,55.4167,27.91,83,20,3.09,SC,1698870946
450,Bor,56.3567,44.0669,11.96,87,83,3.69,RU,1698870946
451,Mongoumba,3.6415,18.5936,21.77,96,100,0.56,CF,1698870947
452,Usogorsk,63.4106,48.6872,-10.74,99,94,3.39,RU,1698870947
453,Kuloy,61.0305,42.4925,-3.28,95,100,4.44,RU,1698870947
454,Lewistown,40.5992,-77.5714,7.12,79,75,4.63,US,1698870947
455,Malango,-2.9627,119.9001,18.78,93,100,1.12,ID,1698870948
456,Ambalangoda,6.2355,80.0538,24.33,93,100,1.37,LK,1698870948
457,Steinbach,50.1667,8.5667,12.66,74,0,4.63,DE,1698870948
458,Mainit,9.535,125.5231,25.69,85,11,0.55,PH,1698870948
459,Aliabad,41.4822,46.6353,12.79,82,18,3.09,AZ,1698870948
460,Hirara,24.8,125.2833,24.15,83,40,4.12,JP,1698870948
461,Vokhtoga,58.8147,41.0461,6.64,99,100,2.98,RU,1698870949
462,Jinchang,38.4953,102.1739,8.25,54,64,0.82,CN,1698870949
463,Noyabrsk,63.1994,75.4507,-9.87,89,100,3.13,RU,1698870949
464,Vanimo,-2.6741,141.3028,24.93,90,98,1.96,PG,1698870949
465,Chidawa,28.2401,75.6456,23.72,36,33,2.29,IN,1698870949
466,Belokurikha,51.9959,84.9896,3.11,80,100,1.75,RU,1698870950
467,Lucapa,-8.4192,20.7447,19.42,98,100,0.9,AO,1698870950
468,Choibalsan,48.0667,114.5,-4.55,94,100,8.21,MN,1698870950
469,Mildura,-34.2,142.15,10.04,78,14,5.09,AU,1698870950
470,Miahuatlan,18.5667,-97.4333,13.77,78,95,5.08,MX,1698870950
471,Restrepo,3.822,-76.5224,26.19,88,100,2.44,CO,1698870950
472,Saint-Joseph,-21.3667,55.6167,21.93,82,100,3.74,RE,1698870951
473,Pocahontas,36.2615,-90.9712,8.36,54,0,2.24,US,1698870951
474,Oktyabr'Skiy,54.4815,53.471,6.61,89,5,4.47,RU,1698870951
475,Daye,30.0833,114.95,17.73,76,0,2.25,CN,1698870951
476,Sirte,31.2089,16.5887,26.12,41,13,3.03,LY,1698870951
477,Talcahuano,-36.7167,-73.1167,14.82,55,20,7.72,CL,1698870951
478,Berdigestyakh,62.0989,126.6992,-17.56,94,100,3.56,RU,1698870952
479,Haiku-Pauwela,20.9219,-156.3051,28.36,68,20,2.06,US,1698870952
480,San Jose De Jachal,-30.2406,-68.7469,21.13,34,60,8.54,AR,1698870952
481,Skovorodino,53.9833,123.9167,-12.55,81,3,1.71,RU,1698870952
482,Amboanjo,-22.6667,47.8167,22.84,91,100,4.62,MG,1698870952
483,Al Wajh,26.2455,36.4525,25.97,65,0,2.06,SA,1698870952
484,Kamin-Kashyrskyi,51.6241,24.9586,8.08,78,99,1.06,UA,1698870953
485,Meulaboh,4.1363,96.1285,24.43,89,100,1.59,ID,1698870953
486,Tabou,4.423,-7.3528,25.9,88,19,3.38,CI,1698870953
487,Callao,-12.0667,-77.15,20.95,73,100,3.6,PE,1698870546
488,Kaohsiung,22.6163,120.3133,24.46,90,40,1.54,TW,1698870331
489,Suez,29.9737,32.5263,22.17,83,0,4.73,EG,1698870953
490,Conception Bay South,47.4999,-52.9981,7.03,88,100,4.48,CA,1698870793
491,Tokmok,42.8417,75.3016,7.12,66,29,0.84,KG,1698870667
492,Dawson Creek,55.7666,-120.2362,3.8,65,0,0.0,CA,1698870954
493,Pemangkat,1.1667,108.9667,25.4,86,100,1.54,ID,1698870954
494,Zhoushan,30.0108,122.2047,21.11,71,0,5.61,CN,1698870954
495,Tari,12.4086,4.4914,28.48,18,43,2.32,NG,1698870954
496,Chipinge,-20.1883,32.6236,12.91,89,100,0.61,ZW,1698870954
497,Saldanha,-33.0117,17.9442,24.03,55,100,5.47,ZA,1698870954
498,Les Avirons,-21.2418,55.3394,23.03,80,97,3.64,RE,1698870954
499,Bubaque,11.2833,-15.8333,28.49,73,29,3.88,GW,1698870955
500,Almus,40.3758,36.9044,16.57,64,100,1.69,TR,1698870955
501,Tiquipaya,-17.3382,-66.2189,27.4,25,75,9.83,BO,1698870955
502,Labin,45.095,14.1197,13.62,79,99,2.37,HR,1698870955
503,New Norfolk,-42.7826,147.0587,8.84,74,90,1.31,AU,1698870955
504,Ribeira Brava,32.65,-17.0667,21.67,86,42,2.14,PT,1698870955
505,Karratha,-20.7377,116.8463,23.97,54,0,4.18,AU,1698870955
506,Akita,39.7167,140.1167,16.02,80,62,4.99,JP,1698870956
507,Kandyagash,49.4744,57.4233,7.42,77,94,4.13,KZ,1698870956
508,La Mohammedia,36.6745,10.1563,21.61,73,12,5.08,TN,1698870956
509,Carnarvon,-24.8667,113.6333,20.76,76,0,6.52,AU,1698870956
510,Trevelin,-43.0858,-71.4639,13.47,55,54,3.74,AR,1698870956
511,Morehead City,34.7229,-76.726,12.0,47,75,7.72,US,1698870956
512,Kirkwall,58.9848,-2.9587,9.03,93,75,8.75,GB,1698870957
513,Broken Hill,-31.95,141.4333,14.68,32,100,4.61,AU,1698870691
514,Campbell River,50.0163,-125.2446,9.22,87,75,1.54,CA,1698870957
515,Al Hufuf,25.3646,49.5653,25.19,78,0,0.0,SA,1698870957
516,Ambodifotatra,-16.9833,49.85,25.51,81,26,3.86,MG,1698870957
517,Mecitozu,40.52,35.2953,15.27,60,100,1.31,TR,1698870957
518,Prymors'K,46.7348,36.3443,14.97,84,100,6.43,UA,1698870957
519,Upington,-28.4478,21.2561,22.21,17,83,2.06,ZA,1698870758
520,Jinzhou,41.1078,121.1417,8.16,73,0,2.88,CN,1698870958
521,Detroit Lakes,46.8172,-95.8453,2.14,64,100,2.57,US,1698870709
522,Port Douglas,-16.4833,145.4667,22.27,73,49,1.51,AU,1698870958
523,Al Khums,32.6486,14.2619,25.0,62,57,4.49,LY,1698870958
524,Northam,51.0333,-4.2167,9.25,94,100,15.36,GB,1698870958
525,Tashtagol,52.7657,87.8894,0.29,99,100,1.34,RU,1698870958
526,Rivne,50.6231,26.2274,11.15,74,100,2.16,UA,1698870959
527,Manismata,-2.4667,111.0333,23.28,99,100,0.86,ID,1698870959
528,Kununurra,-15.7667,128.7333,23.99,88,7,1.54,AU,1698870959
529,Ormara,25.2088,64.6357,27.65,64,16,1.15,PK,1698870959
530,Santa Rosalia,27.3167,-112.2833,25.77,43,100,4.85,MX,1698870869
531,Mata-Utu,-13.2816,-176.1745,27.77,76,77,8.56,WF,1698870959
532,Sur,22.5667,59.5289,25.99,57,5,0.78,OM,1698870960
533,Cobija,-11.0267,-68.7692,30.1,70,75,3.09,BO,1698870960
534,Dar Chioukh,34.8964,3.4854,14.85,70,14,2.77,DZ,1698870960
535,Konarka,19.9,86.1167,24.22,81,43,1.39,IN,1698870960
536,Fallon,39.4735,-118.7774,16.62,23,75,1.54,US,1698870960
537,Susanville,40.4163,-120.653,12.91,26,0,1.54,US,1698870961
538,Yung Shue Wan,22.2333,114.1167,24.86,81,25,5.73,HK,1698870961
539,Bu'Aale,1.0833,42.5833,24.87,89,99,1.71,SO,1698870961
540,Portland,45.5234,-122.6762,12.83,63,100,6.17,US,1698870420
541,Kargasok,59.0556,80.8572,-9.46,87,100,1.79,RU,1698870737
542,Kiboga,0.9161,31.7742,17.79,97,100,0.46,UG,1698870962
543,Papao,-17.75,-149.55,27.82,84,86,11.74,PF,1698870962
544,Kindu,-2.95,25.95,21.77,99,100,0.64,CD,1698870964
545,Bikenibeu Village,1.3673,173.1241,25.98,94,100,1.54,KI,1698870965
546,Chicoana,-25.1009,-65.5331,23.03,67,68,4.37,AR,1698870965
547,Wanning,18.8003,110.3967,24.71,89,91,1.71,CN,1698870965
548,Aginskoye,51.1,114.53,-8.68,67,88,2.61,RU,1698870966
549,Hopelchen,19.7667,-89.85,29.53,58,93,2.02,MX,1698870966
550,Cooper'S Town,26.8667,-77.5167,25.68,76,61,8.29,BS,1698870966
551,Al Ghayzah,16.2079,52.176,26.49,69,46,3.7,YE,1698870966
552,Melekeok Village,7.4957,134.6367,28.0,76,77,2.75,PW,1698870967
553,Tadine,-21.55,167.8833,21.85,57,99,3.84,NC,1698870967
554,Phichit,16.25,100.4167,23.05,93,66,1.24,TH,1698870967
555,Chibougamau,49.9168,-74.3659,-5.21,74,100,5.14,CA,1698870968
556,Kirakira,-10.4544,161.9205,27.35,83,100,3.88,SB,1698870968
557,Farsan,32.2569,50.561,10.02,57,99,0.11,IR,1698870968
558,Extrema,-22.8547,-46.3183,18.17,92,89,2.94,BR,1698870969
559,Bhimunipatnam,17.8833,83.4333,23.55,86,45,2.98,IN,1698870969
